{"type":"FeatureCollection","features":[{"type":"Feature","properties":{"name":"Punkt pomocy (Dorohusk)","description":"Pałac Suchodolskich Gminny Ośrodek Kultury i Turystyki, ul. Parkowa 5, 22-175 Dorohusk – osiedle","custom":"punkt recepcyjny"},"geometry":{"type":"Point","coordinates":[23.80484955594276,51.16535155462104]}},{"type":"Feature","properties":{"name":"Punkt pomocy (Dołhobyczów)","description":"Przygraniczne Centrum Kultury i Rekreacji, ul. Spółdzielcza 8, 22 - 540 Dołhobyczów","custom":"punkt recepcyjny"},"geometry":{"type":"Point","coordinates":[24.03047761174245,50.58797836696357]}},{"type":"Feature","properties":{"name":"Punkt pomocy (Horodło)","description":"Zespół Szkół w Horodle, ul. Piłsudskiego 58, 22 - 523 Horodło","custom":"punkt recepcyjny"},"geometry":{"type":"Point","coordinates":[24.039046169425202,50.892683065726324]}},{"type":"Feature","properties":{"name":"Punkt pomocy (Lubycza Królewska)","description":"Szkoła Podstawowa w Lubyczy Królewskiej (zaplecze hali sportowej), ul. Jana III Sobieskiego 5, 22 - 680 Lubycza Królewska","custom":"punkt recepcyjny"},"geometry":{"type":"Point","coordinates":[23.52104399824096,50.33941555568293]}},{"type":"Feature","properties":{"name":"Punkt pomocy (Korczowa)","description":"Świetlica, Korczowa 155 37-552 Korczowa","custom":"punkt recepcyjny"},"geometry":{"type":"Point","coordinates":[23.079404627062928,49.956127625430305]}},{"type":"Feature","properties":{"name":"Punkt pomocy (Medyka)","description":"Hala sportowa - Medyka 285, 37-732 Medyka","custom":"punkt recepcyjny"},"geometry":{"type":"Point","coordinates":[22.931451698221746,49.80518541725776]}},{"type":"Feature","properties":{"name":"Punkt pomocy (Krowica Sama)","description":"Szkoła Podstawowa w m. Krowica Sama 183, 37-625 Krowica Sama","custom":"punkt recepcyjny"},"geometry":{"type":"Point","coordinates":[23.232696184739975,50.10104818407489]}},{"type":"Feature","properties":{"name":"Punkt pomocy (Ustrzyki Dolne)","description":"Była Szkoła Podstawowa w Łodynie,  Łodyna 41, 38-700 Ustrzyki Dolne","custom":"punkt recepcyjny"},"geometry":{"type":"Point","coordinates":[22.594869998209404,49.460197307039245]}}]}